CODE;NAME;RIVER;AREA_KM2;LON;LAT;GAUGE0_MASL
2150;Borl I;Drava;14642.08;15.996148;46.370967;201.41
2160;Zavrč;Drava;14691.52;16.036762;46.388309;197.86
2220;Črna;Meža;95.17;14.848425;46.470395;573.45
2250;Otiški Vrh I;Meža;552.6;15.025925;46.57774;334
2372;Dovže II;Mislinja;72.76;15.147497;46.456627;507.59
2420;Stari trg I;Suhodolnica;59.45;15.0725;46.504378;404.86
2530;Ruta;Radoljna;74.48;15.423434;46.558859;296
2600;Zreče;Dravinja;42.75;15.383343;46.379852;405.07
2620;Loče;Dravinja;175.67;15.493688;46.301548;267.42
2640;Makole;Dravinja;303.21;15.670445;46.319291;240.38
2652;Videm;Dravinja;767.34;15.902975;46.36833;209.24
2667;Perovec;Oplotnica;78.57;15.48773;46.33931;283.13
2693;Spodnja Ložnica;Ložnica;99.86;15.650746;46.337056;241.87
2719;Podlehnik I;Rogatnica;57.26;15.878394;46.332435;223.24
2754;Tržec;Polskava;189.16;15.878011;46.363673;214.07
2830;Ranca;Pesnica;84.27;15.68138;46.599535;250.27
2880;Gočova;Pesnica;281.77;15.868674;46.55677;225.46
2900;Zamušani I;Pesnica;479.76;16.033958;46.414125;201.85
3014;Kranjska Gora I;Sava Dolinka;39.72;13.785418;46.489272;794.1
3080;Blejski most;Sava Dolinka;508.79;14.134629;46.36755;428.05
3180;Podhom;Radovna;166.8;14.085734;46.393505;566.2
3200;Sveti Janez;Sava Bohinjka;94.35;13.886547;46.278363;525.04
3250;Bodešče;Sava Bohinjka;363.9;14.14191;46.341903;414
3260;Ukanc;Savica;66.76;13.829554;46.280967;527.43
3300;Stara Fužina II;Mostnica;74.26;13.889262;46.28283;527.2
3320;Bohinjska Bistrica;Bistrica;13.52;13.950052;46.27359;504.45
3420;Radovljica;Sava;907.96;14.165351;46.339933;408.18
3465;Okroglo;Sava;1198.73;14.319599;46.255877;355.95
3530;Medno;Sava;2201.44;14.440475;46.122519;300.29
3660;Litija;Sava;4849.67;14.828774;46.056836;230.66
3725;Hrastnik;Sava;5205.3;15.09063;46.12181;193.94
3850;Čatež I;Sava;10232.42;15.609923;45.893131;137.32
3900;Jesenice na Dolenjskem;Sava;10927.66;15.692534;45.86031;129.48
4025;Ovsiše II;Lipnica;40.25;14.258198;46.288546;375.17
4050;Preska;Tržiška Bistrica;121.5;14.299644;46.357801;488.76
4120;Kokra I;Kokra;113.1;14.49892;46.30595;523
4155;Kranj II;Kokra;221.35;14.359608;46.243186;357
4200;Suha I;Sora;568.86;14.326074;46.162035;329.47
4209;Medvode II;Sora;647.38;14.413329;46.139238;306.69
4222;Žiri III;Poljanska Sora;63.28;14.106828;46.04357;474.77
4230;Zminec;Poljanska Sora;306.52;14.290209;46.153043;343.33
4298;Vešter;Selška Sora;213.76;14.285167;46.172173;358.26
4400;Kamnik I;Kamniška Bistrica;195.5;14.613138;46.224038;370.65
4430;Vir;Kamniška Bistrica;208.58;14.604283;46.147682;301.25
4445;Bišče;Kamniška Bistrica;382.55;14.615852;46.103881;274.4
4480;Nevlje I;Nevljica;82.21;14.624765;46.232859;379.9
4515;Vir;Rača;161.41;14.616531;46.143928;299.17
4520;Podrečje;Rača;163.84;14.609309;46.142052;297.49
4570;Topole;Pšata;93.92;14.56263;46.173735;320.27
4575;Loka;Pšata;99999.99;14.5603;46.143478;301.43
4626;Zagorje;Medija;96.4;14.996309;46.127578;232.22
4650;Žebnik;Sopota;48.38;15.134751;46.063012;256.54
4671;Martinja vas II;Mirna;186.02;15.137391;45.96003;228.56
4695;Jelovec;Mirna;271.21;15.230111;45.988532;208.59
4706;Metni Vrh;Sevnična;42.03;15.297582;46.025786;199.91
5030;Vrhnika;Ljubljanica;1135.12;14.300117;45.966211;285.93
5078;Moste I;Ljubljanica;1777.96;14.544433;46.055418;281.32
5240;Verd I;Ljubija;88888.88;14.308629;45.957359;286.38
5270;Bistra I;Bistra;88888.88;14.339185;45.949814;286.76
5330;Borovnica;Borovniščica;35.84;14.369743;45.916314;295.42
5425;Iška vas;Iška;69.69;14.514652;45.936289;323.15
5440;Ig;Ižica;18.92;14.534596;45.957401;287.71
5479;Bokalce;Gradaščica;154.5;14.446434;46.045137;296.75
5500;Dvor;Gradaščica;78.88;14.344866;46.062241;341.16
5540;Razori;Šujica;46.95;14.437781;46.048069;298.45
6020;Solčava I;Savinja;63.41;14.693153;46.419607;636.05
6060;Nazarje;Savinja;457.11;14.952818;46.321524;337.03
6068;Letuš I;Savinja;529.53;15.00447;46.326357;313.62
6120;Medlog;Savinja;1038.57;15.220481;46.233324;238.15
6140;Celje II - brv;Savinja;1191.84;15.260661;46.227714;230.27
6200;Laško;Savinja;1668.16;15.233743;46.153921;215.07
6210;Veliko Širje I;Savinja;1847.14;15.192333;46.09199;189.53
6220;Luče;Lučnica;57.39;14.745937;46.35428;509.97
6240;Kraše;Dreta;100.82;14.899242;46.284969;365.69
6280;Velenje;Paka;63.36;15.118385;46.361788;389.09
6300;Šoštanj;Paka;131.64;15.048436;46.375747;353.03
6340;Rečica;Paka;206.07;15.038321;46.321132;305.01
6415;Gaberke;Velunja;28.9;15.077937;46.393103;385.6
6550;Dolenja vas II;Bolska;170.47;15.092941;46.239218;268.01
6630;Levec I;Ložnica;102.89;15.219971;46.243825;241.02
6691;Črnolica;Voglajna;54.73;15.422751;46.199827;263.27
6720;Celje II;Voglajna;202.89;15.283258;46.232048;234.41
6770;Polže;Hudinja;69.09;15.279242;46.314135;285.97
6790;Škofja vas;Hudinja;155.92;15.28681;46.264766;242.48
6835;Vodiško I;Gračnica;96.8;15.233602;46.106956;212.01
7029;Podbukovje I;Krka;346.92;14.78503;45.876745;259.19
7060;Soteska;Krka;950.12;15.019153;45.779365;167.6
7110;Gorenja Gomila;Krka;1873.63;15.285577;45.867577;148.85
7160;Podbočje;Krka;2252.98;15.455346;45.864765;146.31
7272;Meniška vas I;Radešca;289.81;15.035452;45.759613;167.89
7340;Prečna;Prečna;295.19;15.108711;45.814747;163.78
7380;Škocjan;Radulja;108.14;15.291809;45.907553;159.68